{"Amarillo": [{"name": "Martha's Home Inc.", "address": "1204 W. 18th Ave.", "city": "Amarillo", "state": "TX", "zip_code": "79102", "location": "35.19579700901909,-101.85153001074285", "phone_number": "(806) 372-4035", "email_address": "info@marthashome.org", "fax_number": "", "official_website": "https://www.marthashome.org/", "twitter": "https://twitter.com/Marthas_Home", "facebook": "https://www.facebook.com/MarthasHome/", "instagram": "https://www.instagram.com/explore/locations/1018780972/marthas-home/", "description": "Martha's Home provides homeless women and their children with shelter and support while guiding them towards a lifestyle of self-sufficiency. Services offered to the women and their children in need: - Case Management services with individualized assistance - GED tutoring and access to academic programs at Amarillo College, WTAMU - Assistance with scholarship opportunities and grant applications - Vocational training and job placement through the Panhandle Workforce Solutions - Life skills training where women learn budgeting, job interviewing skills, stress management, and conflict resolution - Legal matters through Legal Aid of Northwest Texas - Medical problems and completing medical forms - Childcare through local and government funded programs - Parenting classes taught at Family Support Services - Spiritual support and regularly scheduled Bible study - Mentoring by former Marthas Home clients - Establishment of permanent housing through City of Amarillo Rental Assistance, Shelter Plus Care, etc.", "photo_urls": ["https://www.homelessshelterdirectory.org/gallery/566_marthashome_org.jpg", "https://www.homelessshelterdirectory.org/gallery/566__beq.jpg"], "update_datetime": "2023-06-21T17:24:12Z"}, {"name": "Faith City Mission", "address": "600 N Tyler St", "city": "Amarillo", "state": "TX", "zip_code": "79107", "location": "35.21970601064139,-101.83532997119954", "phone_number": "(806) 373-6402", "email_address": "info@faithcity.org.uk", "fax_number": "", "official_website": "https://www.faithcity.org/", "twitter": "https://twitter.com/faithcity", "facebook": "https://www.facebook.com/faithcitymission/", "instagram": "https://www.instagram.com/faithcitymission", "description": "Our Mission is to Feed the Hungry, Clothe the Naked, Shelter the Homeless, and Preach the Gospel.Emergency Food, Clothing, Shelter, and Showers is a daily service provided for Amarillo's homeless community. We serve 3 hot meals Monday through Saturday. We also provide emergency overnight shelter, inclement weather shelter and day room, daily showers, and Chapel services.", "photo_urls": ["https://www.homelessshelterdirectory.org/gallery/311_faithcity_org.jpg", "https://www.homelessshelterdirectory.org/gallery/311__ilq.jpg", "https://www.homelessshelterdirectory.org/gallery/140_faithcitymission.jpg", "https://www.homelessshelterdirectory.org/gallery/fb_2207.jpg"], "update_datetime": "2023-06-21T17:24:12Z"}, {"name": "Family Support Services", "address": "7136 West Interstate 40 Suite B", "city": "Amarillo", "state": "TX", "zip_code": "79101", "location": "35.187846983404754,-101.91555601633878", "phone_number": "(806) 342-2500", "email_address": "jcampbell@fss-ama.org", "fax_number": "", "official_website": "https://fss-ama.org/", "twitter": "https://twitter.com/FSSAmarillo/", "facebook": "https://www.facebook.com/FSSofAmarillo/", "instagram": "https://www.instagram.com/fss_of_amarillo/", "description": "", "photo_urls": ["https://www.homelessshelterdirectory.org/gallery/322_fss-ama_org.jpg", "https://www.homelessshelterdirectory.org/gallery/fb_2719.jpg", "https://www.homelessshelterdirectory.org/gallery/322__elp.jpg", "https://www.homelessshelterdirectory.org/gallery/147_fss_of_amarillo.jpg"], "update_datetime": "2023-06-21T17:24:12Z"}, {"name": "City of Refuge (day refuge - sack lunches and clothing)", "address": "613 S. Adams", "city": "Amarillo", "state": "TX", "zip_code": "79101", "location": "35.20831601005435,-101.84680999342669", "phone_number": "(806) 331-1891", "email_address": "", "fax_number": "", "official_website": "", "twitter": "", "facebook": "", "instagram": "", "description": "They welcome people who come from all aspects of society, especially those who have felt excluded in isolation and alone.", "photo_urls": ["https://www.homelessshelterdirectory.org/gallery/203__xtj.jpg"], "update_datetime": "2023-06-21T17:24:12Z"}, {"name": "Guyon Saunders Resource Center", "address": "200 South Tyler St.", "city": "Amarillo", "state": "TX", "zip_code": "79101", "location": "35.21166001223571,-101.83795400980765", "phone_number": "(806) 373-0704", "email_address": "bryan@unitedwayama.org", "fax_number": "", "official_website": "https://guyonsaunders.com/", "twitter": "", "facebook": "https://www.facebook.com/Guyonsaunderscenter.org/", "instagram": "", "description": "GSRC Community Day Room serves as a day shelter to those that are experiencing homelessness or are at risk of becoming homeless. The Community Day Room is accessible seven days a week, Monday-Friday, 7:00 a.m. 5:00 p.m. and Saturday and Sunday, 7:30 a.m. 3:30 p.m. The Community Day Room does not close during severe weather conditions. The GSRC Day Room also offers a separate Children and Families Day Room. The Children and Families Day Room offers a day shelter to parents and their children giving them the opportunity for a safe place to play, learn, and interact with others, as well as having access to basic needs.", "photo_urls": ["https://www.homelessshelterdirectory.org/gallery/3560_tx_guyon-saunders-resource-center-community-day-room_ddw.jpg", "https://www.homelessshelterdirectory.org/gallery/3560_1623833318.jpg", "https://www.homelessshelterdirectory.org/gallery/3560_tx_guyon-saunders-resource-center-community-day-room_aap.jpg", "https://www.homelessshelterdirectory.org/gallery/3560_guyonsaunders_com.jpg"], "update_datetime": "2023-06-21T17:24:12Z"}, {"name": "Patsy's Place Transitional Home", "address": "PO Box 7160", "city": "Amarillo", "state": "TX", "zip_code": "79114", "location": "35.207250000000045,-101.83388999999994", "phone_number": "(806) 418-2480", "email_address": "info@sharinghopeministry.org", "fax_number": "", "official_website": "https://www.sharinghopeministry.org", "twitter": "http://www.twitter.com/sharinghopeama", "facebook": "https://www.facebook.com/sharinghopeministry", "instagram": "https://www.instagram.com/sharinghopeamarillo", "description": "Patsy's Place is a Christ-centered transitional home in Amarillo, Texas. The volunteers and staff nurture and mentor women as they struggle to cope with the overwhelming obstacles they face almost immediately upon release from county jail or prison.", "photo_urls": ["https://www.homelessshelterdirectory.org/gallery/17394__qdh.jpg"], "update_datetime": "2023-06-21T17:24:12Z"}, {"name": "Downtown Women's Center", "address": "409 S. Monroe St.", "city": "Amarillo", "state": "TX", "zip_code": "79101", "location": "35.2100200090604,-101.84266396883999", "phone_number": "(806) 372-3625", "email_address": "info@dwcenter.org", "fax_number": "", "official_website": "https://dwcenter.org/", "twitter": "", "facebook": "https://www.facebook.com/Downtown-Womens-Center-Services-Amarillo-TX-104780294419548", "instagram": "https://www.instagram.com/dwcthriftstores/", "description": "", "photo_urls": ["https://www.homelessshelterdirectory.org/gallery/278_dwcenter_org.jpg", "https://www.homelessshelterdirectory.org/gallery/124_dwcthriftstores.jpg"], "update_datetime": "2023-06-21T17:24:12Z"}, {"name": "Salvation Army of Amarillo Shelter", "address": "400 S. Harrison St.", "city": "Amarillo", "state": "TX", "zip_code": "79101", "location": "35.20946600717002,-101.83976902712126", "phone_number": "(409) 935-1190", "email_address": "saauxiliaryofhoodcounty@gmail.com", "fax_number": "", "official_website": "https://www.salvationarmytexas.org/amarillo/", "twitter": "https://twitter.com/SalArmyTX", "facebook": "https://www.facebook.com/SalvationArmyAmarillo/", "instagram": "https://www.instagram.com/salarmytx", "description": "", "photo_urls": ["https://www.homelessshelterdirectory.org/gallery/17393__ncp.jpg"], "update_datetime": "2023-06-21T17:24:12Z"}, {"name": "Another Chance House", "address": "209 S. Jackson", "city": "Amarillo", "state": "TX", "zip_code": "79101", "location": "35.211897010547986,-101.84108699757657", "phone_number": "(806) 372-3344", "email_address": "info@anotherchancehouse.org", "fax_number": "", "official_website": "https://anotherchancehouse.org/", "twitter": "", "facebook": "https://www.facebook.com/AnotherChanceHouseAmarillo/", "instagram": "https://www.instagram.com/anotherchancehouseACH", "description": "Homeless shelter for men fighting alcoholism and drug addiction.Nonprofit provider of emergency shelter and permanent, low-income rental housing to homeless males. ACH is unique and innovative because it offers several types of housing for long-term efforts toward self-sufficiency. Currently, housing is available for 55.ACH is continually expanding its housing services by acquiring more properties that can be offered as low-income housing. It has expanded its role in the Amarillo community by collaborating with other organizations to assist more men, eliminate drug neighborhoods and minimize poverty.Program Services include case management, Alcoholics Anonymous, Narcotics Anonymous, recovery programs, respect programs, family orientation, employment referral, vocational training and transportation.Another Chance House reserves a select number of beds for America's veterans. This program is a collaboration between ACH and the Veteran's Administration.", "photo_urls": ["https://www.homelessshelterdirectory.org/gallery/529_anotherchancehouse_org.jpg", "https://www.homelessshelterdirectory.org/gallery/241_anotherchancehouseach.jpg", "https://www.homelessshelterdirectory.org/gallery/fb_602.jpg", "https://www.homelessshelterdirectory.org/gallery/529__bbf.jpg"], "update_datetime": "2023-06-21T17:24:12Z"}]}